{"HotelID":101,"HotelName":"K K H tel Cayr Saint Germain des Pr s","HotelAddress":"4 Boulevard Raspail 7th arr 75007 Paris France","Country":"France","OriginalHotelName":"K K H tel Cayr Saint Germain des Pr s","Latitude":"48.8553117","Longitude":"2.3254628","NearestAirportID":"LFPV"}
{"HotelID":115,"HotelName":"NH Barcelona Stadium","HotelAddress":"Travessera de les Corts 150 152 Les Corts 08028 Barcelona Spain","Country":"Spain","OriginalHotelName":"NH Barcelona Stadium","Latitude":"41.3812574","Longitude":"2.1269078","NearestAirportID":"LEBL"}
{"HotelID":126,"HotelName":"Hotel Miramar Barcelona GL","HotelAddress":"Plaza Carlos Iba ez 3 Sants Montju c 08038 Barcelona Spain","Country":"Spain","OriginalHotelName":"Hotel Miramar Barcelona GL","Latitude":"41.3703041","Longitude":"2.17141","NearestAirportID":"LEBL"}
{"HotelID":756,"HotelName":"Henry VIII","HotelAddress":"23 Leinster Gardens Westminster Borough London W2 3AN United Kingdom","Country":"United Kingdom","OriginalHotelName":"Henry VIII","Latitude":"51.5124655","Longitude":"-0.182274","NearestAirportID":"EGLC"}
{"HotelID":772,"HotelName":"Hotel du Vin Cannizaro House Wimbledon","HotelAddress":"Westside Wimbledon Common Wimbledon London SW19 4UE United Kingdom","Country":"United Kingdom","OriginalHotelName":"Hotel du Vin Cannizaro House Wimbledon","Latitude":"51.4242413","Longitude":"-0.2293503","NearestAirportID":"GB-0384"}
{"HotelID":1165,"HotelName":"Hotel Le petit Paris","HotelAddress":"214 rue Saint Jacques 5th arr 75005 Paris France","Country":"France","OriginalHotelName":"Hotel Le petit Paris","Latitude":"48.8452789","Longitude":"2.342295","NearestAirportID":"LFPV"}
{"HotelID":1183,"HotelName":"The Hoxton Holborn","HotelAddress":"199 206 High Holborn Camden London WC1V 7BD United Kingdom","Country":"United Kingdom","OriginalHotelName":"The Hoxton Holborn","Latitude":"51.5172398","Longitude":"-0.1220324","NearestAirportID":"EGLC"}
{"HotelID":1378,"HotelName":"Hidden Hotel by Elegancia","HotelAddress":"28 Rue de l Arc de Triomphe 17th arr 75017 Paris France","Country":"France","OriginalHotelName":"Hidden Hotel by Elegancia","Latitude":"48.8775326","Longitude":"2.293458","NearestAirportID":"LFPV"}
