{"HotelID":497,"HotelName":"The Royal Park Hotel","HotelAddress":"3 Westbourne Terrace Lancaster Gate Westminster Borough London W2 3UL United Kingdom","Country":"United Kingdom","Phone":"020 7479 6600","OriginalHotelName":"The Royal Park Hotel","GoogleAddress":["3 Westbourne Terrace","Lancaster Gate","London W2 3UL, United Kingdom"],"Latitude":"51.5142054","Longitude":"-0.1766098","gPlusPlaceId":"111481370403375781154","NearestAirportID":"EGLC"}
{"HotelID":596,"HotelName":"The Cumberland A Guoman Hotel","HotelAddress":"Great Cumberland Place Westminster Borough London W1H 7DL United Kingdom","Country":"United Kingdom","OriginalHotelName":"The Cumberland A Guoman Hotel","Latitude":"51.514879","Longitude":"-0.1606501","NearestAirportID":"EGLC"}
{"HotelID":762,"HotelName":"Alma Barcelona GL","HotelAddress":"Mallorca 269 271 Eixample 08008 Barcelona Spain","Country":"Spain","OriginalHotelName":"Alma Barcelona GL","Latitude":"41.3945074","Longitude":"2.1632659","NearestAirportID":"LEBL"}
{"HotelID":1051,"HotelName":"Grand Hotel Amrâth Amsterdam","HotelAddress":"Prins Hendrikkade 108 Amsterdam City Center 1011 AK Amsterdam Netherlands","Country":"Netherlands","Phone":"020 552 0000","OriginalHotelName":"Grand Hotel Amr th Amsterdam","GoogleAddress":["Prins Hendrikkade 108","1011 AK Amsterdam","Netherlands"],"Latitude":"52.3744149","Longitude":"4.9041443","gPlusPlaceId":"118376577651324260867","NearestAirportID":"EHAM"}
{"HotelID":1243,"HotelName":"Strandhotel Alte Donau","HotelAddress":"Wagramer Stra e 51 22 Donaustadt 1220 Vienna Austria","Country":"Austria","OriginalHotelName":"Strandhotel Alte Donau","Latitude":"48.2390022","Longitude":"16.4292329","NearestAirportID":"LOWW"}
{"HotelID":1274,"HotelName":"Hotel Des Ducs D'Anjou","HotelAddress":"1 Rue Sainte Opportune 1st arr 75001 Paris France","Country":"France","Phone":"01 42 36 92 24","OriginalHotelName":"H tel des Ducs D Anjou","GoogleAddress":["1 Rue Sainte-Opportune","75001 Paris","France"],"Latitude":"48.8598229","Longitude":"2.347111","gPlusPlaceId":"115209143941459061727","NearestAirportID":"LFPB"}
{"HotelID":1296,"HotelName":"Hotel Am Schubertring","HotelAddress":"Schubertring 11 01 Innere Stadt 1010 Vienna Austria","Country":"Austria","Phone":"01 717020","OriginalHotelName":"Hotel Am Schubertring","GoogleAddress":["Schubertring 11","1010 Wien","Austria"],"Latitude":"48.2017277","Longitude":"16.375463","gPlusPlaceId":"116132594350536004782","NearestAirportID":"LOWW"}
{"HotelID":1415,"HotelName":"Hotel Mercure Wien Westbahnhof","HotelAddress":"Felberstra e 4 15 Rudolfsheim F nfhaus 1150 Vienna Austria","Country":"Austria","Phone":"01 981110","OriginalHotelName":"Hotel Mercure Wien Westbahnhof","GoogleAddress":["Felberstraße 4","1150 Wien","Austria"],"Latitude":"48.1983543","Longitude":"16.3375246","gPlusPlaceId":"102088985251181487647","NearestAirportID":"LOWW"}
