{"HotelID":347,"HotelName":"Arenas Atiram Hotels","HotelAddress":"Capitan Arenas 20 Les Corts 08034 Barcelona Spain","Country":"Spain","OriginalHotelName":"Arenas Atiram Hotels","Latitude":"41.3904305","Longitude":"2.1262314","NearestAirportID":"LEBL"}
{"HotelID":447,"HotelName":"Crowne Plaza Barcelona Fira Center","HotelAddress":"Avenida Rius y Taulet 1 3 Sants Montju c 08004 Barcelona Spain","Country":"Spain","OriginalHotelName":"Crowne Plaza Barcelona Fira Center","Latitude":"41.3725246","Longitude":"2.1540788","NearestAirportID":"LEBL"}
{"HotelID":455,"HotelName":"Falkensteiner Hotel Wien Margareten","HotelAddress":"Margareteng rtel 142 05 Margareten 1050 Vienna Austria","Country":"Austria","OriginalHotelName":"Falkensteiner Hotel Wien Margareten","Latitude":"48.1868107","Longitude":"16.3440157","NearestAirportID":"LOWW"}
{"HotelID":484,"HotelName":"Hallmark Hotel London Chigwell Prince Regent","HotelAddress":"Manor Road London IG8 8AE United Kingdom","Country":"United Kingdom","OriginalHotelName":"Hallmark Hotel London Chigwell Prince Regent","Latitude":"51.6068054","Longitude":"0.0590416","NearestAirportID":"GB-0527"}
{"HotelID":607,"HotelName":"Radisson Blu Edwardian Bloomsbury Street","HotelAddress":"9 13 Bloomsbury Street Nr Covent Garden Camden London WC1B 3QD United Kingdom","Country":"United Kingdom","OriginalHotelName":"Radisson Blu Edwardian Bloomsbury Street","Latitude":"51.517608","Longitude":"-0.1276253","NearestAirportID":"EGLC"}
{"HotelID":1035,"HotelName":"Crowne Plaza Paris R publique","HotelAddress":"10 Place De La R publique 11th arr 75011 Paris France","Country":"France","OriginalHotelName":"Crowne Plaza Paris R publique","Latitude":"48.8673199","Longitude":"2.3656296","NearestAirportID":"LFPB"}
