{"HotelID":318,"HotelName":"The College Hotel","HotelAddress":"Roelof Hartstraat 1 Oud Zuid 1071 VE Amsterdam Netherlands","Country":"Netherlands","OriginalHotelName":"The College Hotel","Latitude":"52.3527675","Longitude":"4.88373","NearestAirportID":"EHAM"}
{"HotelID":462,"HotelName":"Paris Marriott Champs Elysees Hotel","HotelAddress":"70 avenue des Champs Elysees 8th arr 75008 Paris France","Country":"France","OriginalHotelName":"Paris Marriott Champs Elysees Hotel","Latitude":"48.8711365","Longitude":"2.3050482","NearestAirportID":"LFPV"}
{"HotelID":547,"HotelName":"Golden Tulip Opera de Noailles","HotelAddress":"9 rue de la Michodi re 2nd arr 75002 Paris France","Country":"France","OriginalHotelName":"Golden Tulip Opera de Noailles","Latitude":"48.8696173","Longitude":"2.3346428","NearestAirportID":"LFPB"}
{"HotelID":1124,"HotelName":"Hotel City Central","HotelAddress":"Taborstra e 8 A 02 Leopoldstadt 1020 Vienna Austria","Country":"Austria","OriginalHotelName":"Hotel City Central","Latitude":"48.2136","Longitude":"16.3799","NearestAirportID":"LOWW"}
{"HotelID":1216,"HotelName":"Hotel 82 London","HotelAddress":"82 Gloucester Place Westminster Borough London W1U 6HN United Kingdom","Country":"United Kingdom","Phone":"020 7486 3679","OriginalHotelName":"Hotel 82 London","GoogleAddress":["82 Gloucester Pl","London W1U 6HN","United Kingdom"],"Latitude":"51.5195857","Longitude":"-0.1584803","gPlusPlaceId":"109717652809824918467","NearestAirportID":"EGLC"}
{"HotelID":1248,"HotelName":"The Marylebone Hotel","HotelAddress":"47 Welbeck Street Westminster Borough London W1G 8DN United Kingdom","Country":"United Kingdom","Phone":"020 7486 6600","OriginalHotelName":"The Marylebone Hotel","GoogleAddress":["47 Welbeck St","London W1G 8DN","United Kingdom"],"Latitude":"51.5180207","Longitude":"-0.1500567","gPlusPlaceId":"110431201363306124454","NearestAirportID":"EGLC"}
{"HotelID":1271,"HotelName":"Appartement Hotel an der Riemergasse","HotelAddress":"Riemergasse 8 01 Innere Stadt 1010 Vienna Austria","Country":"Austria","OriginalHotelName":"Appartement Hotel an der Riemergasse","Latitude":"48.2071576","Longitude":"16.3765913","NearestAirportID":"LOWW"}
