{"HotelID":13,"HotelName":"Best Western Nouvel Orl ans Montparnasse","HotelAddress":"25 avenue du General Leclerc 14th arr 75014 Paris France","Country":"France","OriginalHotelName":"Best Western Nouvel Orl ans Montparnasse","Latitude":"48.8309896","Longitude":"2.3297301","NearestAirportID":"LFPV"}
{"HotelID":218,"HotelName":"11 Cadogan Gardens","HotelAddress":"11 Cadogan Gardens Sloane Square Kensington and Chelsea London SW3 2RJ United Kingdom","Country":"United Kingdom","OriginalHotelName":"11 Cadogan Gardens","Latitude":"51.4936161","Longitude":"-0.1592347","NearestAirportID":"EGLC"}
{"HotelID":280,"HotelName":"Hotel Elysees Mermoz","HotelAddress":"30 Rue Jean Mermoz 8th arr 75008 Paris France","Country":"France","Phone":"01 42 25 75 30","OriginalHotelName":"H tel Elysees Mermoz","GoogleAddress":["30 Rue Jean Mermoz","75008 Paris","France"],"Latitude":"48.8715079","Longitude":"2.3122259","gPlusPlaceId":"114624867165511180289","NearestAirportID":"LFPV"}
{"HotelID":348,"HotelName":"Hotel Lloyd","HotelAddress":"Corso di Porta Romana 48 Milan City Center 20122 Milan Italy","Country":"Italy","Phone":"02 5830 3332","OriginalHotelName":"Hotel Lloyd","GoogleAddress":["Corso di Porta Romana, 48","20122 Milano","Italy"],"Latitude":"45.4580781","Longitude":"9.1924205","gPlusPlaceId":"103842000989285229291","NearestAirportID":"LIML"}
{"HotelID":440,"HotelName":"The Laslett","HotelAddress":"8 Pembridge Garden Kensington and Chelsea London W2 4DU United Kingdom","Country":"United Kingdom","OriginalHotelName":"The Laslett","Latitude":"51.5095259","Longitude":"-0.1967234","NearestAirportID":"EGWU"}
{"HotelID":734,"HotelName":"Novotel Suites Paris Nord 18 me","HotelAddress":"1 Impasse Marteau 18th arr 75018 Paris France","Country":"France","OriginalHotelName":"Novotel Suites Paris Nord 18 me","Latitude":"48.9015941","Longitude":"2.3597783","NearestAirportID":"LFPB"}
