{"HotelID":294,"HotelName":"InterContinental Amstel Amsterdam","HotelAddress":"Professor Tulpplein 1 Amsterdam City Center 1018 GX Amsterdam Netherlands","Country":"Netherlands","OriginalHotelName":"InterContinental Amstel Amsterdam","Latitude":"52.3600068","Longitude":"4.9051643","NearestAirportID":"EHAM"}
{"HotelID":357,"HotelName":"Hotel Front Maritim","HotelAddress":"Paseo Garc a I Faria 69 71 Sant Mart 08019 Barcelona Spain","Country":"Spain","OriginalHotelName":"Hotel Front Maritim","Latitude":"41.4037972","Longitude":"2.213767","NearestAirportID":"LELL"}
{"HotelID":529,"HotelName":"Hotel Derby","HotelAddress":"Loreto 21 25 Les Corts 08029 Barcelona Spain","Country":"Spain","OriginalHotelName":"Hotel Derby","Latitude":"41.3897735","Longitude":"2.1419762","NearestAirportID":"LEBL"}
{"HotelID":905,"HotelName":"City Hotel Deutschmeister","HotelAddress":"Gr nentorgasse 30 09 Alsergrund 1090 Vienna Austria","Country":"Austria","OriginalHotelName":"City Hotel Deutschmeister","Latitude":"48.2209","Longitude":"16.3666","NearestAirportID":"LOWW"}
{"HotelID":1004,"HotelName":"Uptown Palace","HotelAddress":"Via Santa Sofia 10 Milan City Center 20122 Milan Italy","Country":"Italy","Phone":"02 305131","OriginalHotelName":"Uptown Palace","GoogleAddress":["Via Santa Sofia, 10","Milano","Italy"],"Latitude":"45.4574655","Longitude":"9.1919138","gPlusPlaceId":"118356535990470771844","NearestAirportID":"LIML"}
{"HotelID":1187,"HotelName":"Novotel Suites Paris Expo Porte de Versailles","HotelAddress":"4 Boulevard Brune 14th arr 75014 Paris France","Country":"France","OriginalHotelName":"Novotel Suites Paris Expo Porte de Versailles","Latitude":"48.827388","Longitude":"2.305478","NearestAirportID":"LFPV"}
