{"HotelID":58,"HotelName":"The Harmonie Vienna","HotelAddress":"Harmoniegasse 5 7 09 Alsergrund 1090 Vienna Austria","Country":"Austria","OriginalHotelName":"The Harmonie Vienna","Latitude":"48.2199427","Longitude":"16.3598984","NearestAirportID":"LOWW"}
{"HotelID":188,"HotelName":"Novotel London Excel","HotelAddress":"7 Western Gateway Royal Victoria Dock Newham London E16 1AA United Kingdom","Country":"United Kingdom","OriginalHotelName":"Novotel London Excel","Latitude":"51.5077198","Longitude":"0.0229805","NearestAirportID":"EGLC"}
{"HotelID":726,"HotelName":"Palazzo Segreti","HotelAddress":"Via San Tomaso 8 b Milan City Center 20121 Milan Italy","Country":"Italy","Phone":"02 4952 9250","OriginalHotelName":"Palazzo Segreti","GoogleAddress":["Via San Tomaso 8","20131 Milano","Italy"],"Latitude":"45.4672309","Longitude":"9.184154","gPlusPlaceId":"110771398251856288463","NearestAirportID":"LIML"}
{"HotelID":837,"HotelName":"Hotel Eug ne en Ville","HotelAddress":"6 rue Buffault 9th arr 75009 Paris France","Country":"France","OriginalHotelName":"Hotel Eug ne en Ville","Latitude":"48.8750119","Longitude":"2.3416769","NearestAirportID":"LFPB"}
{"HotelID":1370,"HotelName":"Hilton Vienna","HotelAddress":"Am Stadtpark 1 03 Landstra e 1030 Vienna Austria","Country":"Austria","Phone":"01 717000","OriginalHotelName":"Hilton Vienna","GoogleAddress":["Am Stadtpark 1","1030 Wien","Austria"],"Latitude":"48.2062268","Longitude":"16.3833767","gPlusPlaceId":"107377479966171729134","NearestAirportID":"LOWW"}
