{"HotelID":133,"HotelName":"Claridge's","HotelAddress":"41 43 Brook Street Westminster Borough London W1K 4HJ United Kingdom","Country":"United Kingdom","Phone":"020 7629 8860","OriginalHotelName":"Claridge s","GoogleAddress":["49 Brook St","London W1K 4HR","United Kingdom"],"Latitude":"51.5125035","Longitude":"-0.1477438","gPlusPlaceId":"110076416016630938484","NearestAirportID":"EGLC"}
{"HotelID":296,"HotelName":"Atahotel Linea Uno","HotelAddress":"Viale Monza 139 Distretto Viale Monza 20125 Milan Italy","Country":"Italy","Phone":"02 284501","OriginalHotelName":"Atahotel Linea Uno","GoogleAddress":["Viale Monza, 139","20127 Milano","Italy"],"Latitude":"45.50054","Longitude":"9.2208089","gPlusPlaceId":"115085887481666698361","NearestAirportID":"LIMB"}
{"HotelID":472,"HotelName":"The Queen's Gate Hotel","HotelAddress":"31 34 Queen s Gate Kensington and Chelsea London SW7 5JA United Kingdom","Country":"United Kingdom","Phone":"020 7584 7222","OriginalHotelName":"The Queens Gate Hotel","GoogleAddress":["31-34 Queen's Gate","London SW7 5JA","United Kingdom"],"Latitude":"51.4981225","Longitude":"-0.1799693","gPlusPlaceId":"115935011837658970465","NearestAirportID":"EGLC"}
{"HotelID":853,"HotelName":"Mercure Paris Centre Tour Eiffel","HotelAddress":"20 Rue Jean Rey 15th arr 75015 Paris France","Country":"France","Phone":"0 825 80 17 17","OriginalHotelName":"Mercure Paris Centre Tour Eiffel","GoogleAddress":["20 Rue Jean Rey","75015 Paris","France"],"Latitude":"48.8548641","Longitude":"2.2923181","gPlusPlaceId":"113443102693551399429","NearestAirportID":"LFPV"}
{"HotelID":1466,"HotelName":"Hotel Indigo Paris Opera","HotelAddress":"2 Rue Edouard VII 9th arr 75009 Paris France","Country":"France","OriginalHotelName":"Hotel Indigo Paris Opera","Latitude":"48.8704371","Longitude":"2.329236","NearestAirportID":"LFPB"}
