{"HotelID":12,"HotelName":"Melia Paris Champs Elys es","HotelAddress":"102 Avenue Victor Hugo 16th arr 75016 Paris France","Country":"France","OriginalHotelName":"Melia Paris Champs Elys es","Latitude":"48.8688962","Longitude":"2.2827459","NearestAirportID":"LFPV"}
{"HotelID":336,"HotelName":"Best Western Le 18 Paris","HotelAddress":"51 rue Letort 18th arr 75018 Paris France","Country":"France","OriginalHotelName":"Best Western Le 18 Paris","Latitude":"48.8966167","Longitude":"2.3434843","NearestAirportID":"LFPB"}
{"HotelID":350,"HotelName":"Medinaceli","HotelAddress":"Duc De Medinaceli 8 Ciutat Vella 08002 Barcelona Spain","Country":"Spain","OriginalHotelName":"Medinaceli","Latitude":"41.3781685","Longitude":"2.1786627","NearestAirportID":"LEBL"}
{"HotelID":973,"HotelName":"Hotel Whistler","HotelAddress":"36 rue de Saint Quentin 10th arr 75010 Paris France","Country":"France","OriginalHotelName":"Hotel Whistler","Latitude":"48.879314","Longitude":"2.3560185","NearestAirportID":"LFPB"}
{"HotelID":984,"HotelName":"Hotel Santa Marta Suites","HotelAddress":"Via Santa Marta 4 Milan City Center 20123 Milan Italy","Country":"Italy","OriginalHotelName":"Hotel Santa Marta Suites","Latitude":"45.4630441","Longitude":"9.183607","NearestAirportID":"LIML"}
{"HotelID":1046,"HotelName":"Hotel Mayfair Paris","HotelAddress":"3 Rue Rouget De Lisle 1st arr 75001 Paris France","Country":"France","Phone":"01 42 60 38 14","OriginalHotelName":"H tel Mayfair Paris","GoogleAddress":["3 Rue Rouget de Lisle","75001 Paris","France"],"Latitude":"48.8661363","Longitude":"2.3260648","gPlusPlaceId":"113789389085635834164","NearestAirportID":"LFPV"}
{"HotelID":1093,"HotelName":"The Curtain","HotelAddress":"45 Curtain Road Hackney London EC2A 4PJ United Kingdom","Country":"United Kingdom","OriginalHotelName":"The Curtain","Latitude":"51.5237209","Longitude":"-0.0806178","NearestAirportID":"EGLC"}
{"HotelID":1260,"HotelName":"STRAF a Member of Design Hotels ","HotelAddress":"Via San Raffaele 3 Milan City Center 20121 Milan Italy","Country":"Italy","OriginalHotelName":"STRAF a Member of Design Hotels ","Latitude":"45.465237","Longitude":"9.191247","NearestAirportID":"LIML"}
