{"HotelID":118,"HotelName":"The Henrietta Hotel","HotelAddress":"14 Henrietta Street Westminster Borough London WC2E 8QH United Kingdom","Country":"United Kingdom","OriginalHotelName":"The Henrietta Hotel","Latitude":"51.5109079","Longitude":"-0.1238221","NearestAirportID":"EGLC"}
{"HotelID":573,"HotelName":"H tel Mathis Elys es","HotelAddress":"3 rue de Ponthieu 8th arr 75008 Paris France","Country":"France","OriginalHotelName":"H tel Mathis Elys es","Latitude":"48.8700325","Longitude":"2.3112736","NearestAirportID":"LFPV"}
{"HotelID":722,"HotelName":"41","HotelAddress":"41 Buckingham Palace Road Westminster Borough London SW1W 0PS United Kingdom","Country":"United Kingdom","Phone":"020 7300 0041","OriginalHotelName":"41","GoogleAddress":["41 Buckingham Palace Rd","London SW1W 0PS","United Kingdom"],"Latitude":"51.4981471","Longitude":"-0.1436492","gPlusPlaceId":"110529478510004072645","NearestAirportID":"EGLC"}
{"HotelID":1112,"HotelName":"Crowne Plaza Milan City","HotelAddress":"Via Melchiorre Gioia 73 Central Station 20124 Milan Italy","Country":"Italy","Phone":"02 6671 7715","OriginalHotelName":"Crowne Plaza Milan City","GoogleAddress":["Via Melchiorre Gioia, 73","20124 Milano","Italy"],"Latitude":"45.4896727","Longitude":"9.2006406","gPlusPlaceId":"117896414640202931319","NearestAirportID":"LIMB"}
{"HotelID":1373,"HotelName":"Euro Hotel Diagonal Port","HotelAddress":"Lope de Vega 4 Sant Mart 08005 Barcelona Spain","Country":"Spain","Phone":"932 30 20 00","OriginalHotelName":"Eurohotel Diagonal Port","GoogleAddress":["C/ Lope de Vega, 4","08005 Barcelona","Spain"],"Latitude":"41.4006708","Longitude":"2.2087844","gPlusPlaceId":"109298288528322377902","NearestAirportID":"LEBL"}
{"HotelID":1390,"HotelName":"Novotel Milan Nord CA Granda","HotelAddress":"Viale Suzzani 13 Bicocca Zara 20162 Milan Italy","Country":"Italy","Phone":"02 641151","OriginalHotelName":"Novotel Milano Nord Ca Granda","GoogleAddress":["Viale Suzzani, 13","20162 Milano","Italy"],"Latitude":"45.506502","Longitude":"9.1965192","gPlusPlaceId":"100928547484192456945","NearestAirportID":"LIMB"}
{"HotelID":1449,"HotelName":"DO CO Hotel Vienna","HotelAddress":"Stephansplatz 12 01 Innere Stadt 1010 Vienna Austria","Country":"Austria","OriginalHotelName":"DO CO Hotel Vienna","Latitude":"48.2082385","Longitude":"16.3715725","NearestAirportID":"LOWW"}
