{"HotelID":381,"HotelName":"Edouard 7 Paris Op ra","HotelAddress":"39 Avenue de l Op ra 2nd arr 75002 Paris France","Country":"France","OriginalHotelName":"Edouard 7 Paris Op ra","Latitude":"48.8683133","Longitude":"2.3330851","NearestAirportID":"LFPB"}
{"HotelID":498,"HotelName":"H tel Jos phine by Happyculture","HotelAddress":"67 rue Blanche 9th arr 75009 Paris France","Country":"France","OriginalHotelName":"H tel Jos phine by Happyculture","Latitude":"48.8823141","Longitude":"2.3316688","NearestAirportID":"LFPB"}
{"HotelID":721,"HotelName":"Hotel Plaza Athenee Paris","HotelAddress":"25 Avenue Montaigne 8th arr 75008 Paris France","Country":"France","Phone":"01 53 67 66 65","OriginalHotelName":"Hotel Plaza Athenee Paris","GoogleAddress":["25 Avenue Montaigne","75008 Paris","France"],"Latitude":"48.8661932","Longitude":"2.3042141","gPlusPlaceId":"114478011377231133988","NearestAirportID":"LFPV"}
{"HotelID":850,"HotelName":"Hilton Garden Inn Milan North","HotelAddress":"Via Lucio Giunio Columella 36 Distretto Viale Monza 20128 Milan Italy","Country":"Italy","OriginalHotelName":"Hilton Garden Inn Milan North","Latitude":"45.5161671","Longitude":"9.2272778","NearestAirportID":"LIMB"}
{"HotelID":1118,"HotelName":"Threadneedles Autograph Collection","HotelAddress":"5 Threadneedle Street City of London London EC2R 8AY United Kingdom","Country":"United Kingdom","OriginalHotelName":"Threadneedles Autograph Collection","Latitude":"51.5140208","Longitude":"-0.0854919","NearestAirportID":"EGLC"}
{"HotelID":1121,"HotelName":"NH Collection Barcelona Gran Hotel Calder n","HotelAddress":"Rambla Catalunya 26 Eixample 08007 Barcelona Spain","Country":"Spain","OriginalHotelName":"NH Collection Barcelona Gran Hotel Calder n","Latitude":"41.3894654","Longitude":"2.1662651","NearestAirportID":"LEBL"}
{"HotelID":1161,"HotelName":"The Westin Palace","HotelAddress":"Piazza della Repubblica 20 Central Station 20124 Milan Italy","Country":"Italy","OriginalHotelName":"The Westin Palace","Latitude":"45.4790357","Longitude":"9.199028","NearestAirportID":"LIMB"}
