{"HotelID":148,"HotelName":"Courtyard by Marriott Amsterdam Arena Atlas","HotelAddress":"Hoogoorddreef 1 Zuidoost 1101 BA Amsterdam Netherlands","Country":"Netherlands","OriginalHotelName":"Courtyard by Marriott Amsterdam Arena Atlas","Latitude":"52.3101182","Longitude":"4.9472918","NearestAirportID":"NL-0050"}
{"HotelID":463,"HotelName":"Hotel The Serras","HotelAddress":"Passeig de Colom 9 Ciutat Vella 08002 Barcelona Spain","Country":"Spain","OriginalHotelName":"Hotel The Serras","Latitude":"41.3801815","Longitude":"2.180688","NearestAirportID":"LEBL"}
{"HotelID":471,"HotelName":"Hotel Maison Ath n e","HotelAddress":"19 Rue De Caumartin 9th arr 75009 Paris France","Country":"France","OriginalHotelName":"Hotel Maison Ath n e","Latitude":"48.8713421","Longitude":"2.3280723","NearestAirportID":"LFPB"}
{"HotelID":496,"HotelName":"Maison Albar H tel Paris Champs Elys es ex Mac Mahon ","HotelAddress":"3 avenue Mac Mahon 17th arr 75017 Paris France","Country":"France","OriginalHotelName":"Maison Albar H tel Paris Champs Elys es ex Mac Mahon ","Latitude":"48.8753837","Longitude":"2.2944651","NearestAirportID":"LFPV"}
{"HotelID":833,"HotelName":"Catalonia Magdalenes","HotelAddress":"Magdalenes 13 15 Ciutat Vella 08002 Barcelona Spain","Country":"Spain","OriginalHotelName":"Catalonia Magdalenes","Latitude":"41.3861283","Longitude":"2.1745291","NearestAirportID":"LEBL"}
{"HotelID":1088,"HotelName":"Mokinba Hotels Montebianco","HotelAddress":"Via Monte Rosa 90 Fiera Milano City 20149 Milan Italy","Country":"Italy","OriginalHotelName":"Mokinba Hotels Montebianco","Latitude":"45.4788051","Longitude":"9.1446276","NearestAirportID":"LIMB"}
{"HotelID":1238,"HotelName":"ARCOTEL Kaiserwasser Superior","HotelAddress":"Wagramer Stra e 8 22 Donaustadt 1220 Vienna Austria","Country":"Austria","OriginalHotelName":"ARCOTEL Kaiserwasser Superior","Latitude":"48.231915","Longitude":"16.417026","NearestAirportID":"LOWW"}
{"HotelID":1342,"HotelName":"L'edmond Hotel","HotelAddress":"22 avenue de Villiers 17th arr 75017 Paris France","Country":"France","Phone":"01 44 01 09 40","OriginalHotelName":"L Edmond H tel","GoogleAddress":["22 Avenue de Villiers","75017 Paris","France"],"Latitude":"48.8823111","Longitude":"2.3132374","gPlusPlaceId":"107909375352052892577","NearestAirportID":"LFPB"}
