{"HotelID":452,"HotelName":"Best Western Premier Kapital Op ra","HotelAddress":"34 rue de Moscou 8th arr 75008 Paris France","Country":"France","OriginalHotelName":"Best Western Premier Kapital Op ra","Latitude":"48.8814425","Longitude":"2.3235592","NearestAirportID":"LFPB"}
{"HotelID":732,"HotelName":"Victoires Opera","HotelAddress":"56 rue de Montorgueil 2nd arr 75002 Paris France","Country":"France","OriginalHotelName":"Victoires Opera","Latitude":"48.8648997","Longitude":"2.3469433","NearestAirportID":"LFPB"}
{"HotelID":840,"HotelName":"Hotel Villa Saxe Eiffel","HotelAddress":"9 Villa de Saxe 7th arr 75007 Paris France","Country":"France","Phone":"01 47 83 86 90","OriginalHotelName":"Hotel Villa Saxe Eiffel","GoogleAddress":["9 Villa de Saxe","75007 Paris","France"],"Latitude":"48.849758","Longitude":"2.3095213","gPlusPlaceId":"102871486009794491901","NearestAirportID":"LFPV"}
{"HotelID":1029,"HotelName":"Sydney House Chelsea","HotelAddress":"9 11 Sydney Street Kensington and Chelsea London SW3 6PU United Kingdom","Country":"United Kingdom","OriginalHotelName":"Sydney House Chelsea","Latitude":"51.4910062","Longitude":"-0.1717691","NearestAirportID":"EGLC"}
{"HotelID":1032,"HotelName":"Park Hotel","HotelAddress":"Stadhouderskade 25 Oud Zuid 1071 ZD Amsterdam Netherlands","Country":"Netherlands","Phone":"020 671 1222","OriginalHotelName":"Park Hotel","GoogleAddress":["Stadhouderskade 25","1071 ZD Amsterdam","Netherlands"],"Latitude":"52.3613814","Longitude":"4.8832594","gPlusPlaceId":"111754405835660640658","NearestAirportID":"EHAM"}
{"HotelID":1167,"HotelName":"Mercure Paris Montmartre Sacr Coeur","HotelAddress":"3 Rue Caulaincourt 18th arr 75018 Paris France","Country":"France","OriginalHotelName":"Mercure Paris Montmartre Sacr Coeur","Latitude":"48.8852794","Longitude":"2.3301021","NearestAirportID":"LFPB"}
{"HotelID":1464,"HotelName":"H tel Diva Opera","HotelAddress":"11 rue de Tr vise 9th arr 75009 Paris France","Country":"France","OriginalHotelName":"H tel Diva Opera","Latitude":"48.8732706","Longitude":"2.3450746","NearestAirportID":"LFPB"}
