{"HotelID":222,"HotelName":"Luxury Suites Amsterdam","HotelAddress":"Oudeschans 75 Amsterdam City Center 1011 KW Amsterdam Netherlands","Country":"Netherlands","OriginalHotelName":"Luxury Suites Amsterdam","Latitude":"52.3702613","Longitude":"4.9032489","NearestAirportID":"EHAM"}
{"HotelID":285,"HotelName":"NYX Milan","HotelAddress":"Piazza Quattro Novembre 3 Central Station 20124 Milan Italy","Country":"Italy","OriginalHotelName":"NYX Milan","Latitude":"45.4868745","Longitude":"9.2018406","NearestAirportID":"LIMB"}
{"HotelID":601,"HotelName":"Buddha-Bar Hotel Paris","HotelAddress":"4 rue d Anjou 8th arr 75008 Paris France","Country":"France","Phone":"01 83 96 88 88","OriginalHotelName":"Buddha Bar Hotel Paris","GoogleAddress":["4 Rue d'Anjou","75008 Paris","France"],"Latitude":"48.8694695","Longitude":"2.3208564","gPlusPlaceId":"118252209809853889623","NearestAirportID":"LFPB"}
{"HotelID":875,"HotelName":"Hotel Saint Paul Rive Gauche","HotelAddress":"43 rue Monsieur le Prince 6th arr 75006 Paris France","Country":"France","Phone":"01 43 26 98 64","OriginalHotelName":"H tel Saint Paul Rive Gauche","GoogleAddress":["43 Rue Monsieur le Prince","75006 Paris","France"],"Latitude":"48.8496819","Longitude":"2.3402806","gPlusPlaceId":"101917877197109235086","NearestAirportID":"LFPV"}
{"HotelID":1249,"HotelName":"Sansi Pedralbes","HotelAddress":"Avenida Pearson 1 3 Les Corts 08034 Barcelona Spain","Country":"Spain","Phone":"932 06 38 80","OriginalHotelName":"Sansi Pedralbes","GoogleAddress":["Avinguda de Pearson, 1-3","08034 Barcelona","Spain"],"Latitude":"41.39367","Longitude":"2.1115418","gPlusPlaceId":"104044608968803334917","NearestAirportID":"LEBL"}
{"HotelID":1324,"HotelName":"La Villa Maillot","HotelAddress":"143 Avenue De Malakoff 16th arr 75016 Paris France","Country":"France","Phone":"01 53 64 52 52","OriginalHotelName":"La Villa Maillot","GoogleAddress":["143 Avenue de Malakoff","75116 Paris","France"],"Latitude":"48.875551","Longitude":"2.2835191","gPlusPlaceId":"113033302845655399954","NearestAirportID":"LFPV"}
