{"HotelID":175,"HotelName":"Mill sime H tel","HotelAddress":"15 Rue Jacob 6th arr 75006 Paris France","Country":"France","OriginalHotelName":"Mill sime H tel","Latitude":"48.8550236","Longitude":"2.3350786","NearestAirportID":"LFPV"}
{"HotelID":387,"HotelName":"Thistle Holborn The Kingsley","HotelAddress":"Bloomsbury Way Camden London WC1A 2SD United Kingdom","Country":"United Kingdom","OriginalHotelName":"Thistle Holborn The Kingsley","Latitude":"51.5179659","Longitude":"-0.1234343","NearestAirportID":"EGLC"}
{"HotelID":423,"HotelName":"Banks Mansion All Inclusive Hotel","HotelAddress":"Herengracht 519 525 Amsterdam City Center 1017 BV Amsterdam Netherlands","Country":"Netherlands","OriginalHotelName":"Banks Mansion All Inclusive Hotel","Latitude":"52.3653868","Longitude":"4.8931979","NearestAirportID":"EHAM"}
{"HotelID":695,"HotelName":"Town House 12","HotelAddress":"Piazza Gerusalemme 12 Sempione 20154 Milan Italy","Country":"Italy","Phone":"02 8907 8511","OriginalHotelName":"TownHouse 12","GoogleAddress":["Piazza Gerusalemme, 12","20154 Milano","Italy"],"Latitude":"45.4844028","Longitude":"9.1673528","gPlusPlaceId":"102378499115134230371","NearestAirportID":"LIMB"}
{"HotelID":746,"HotelName":"Seraphine Kensington Gardens Hotel","HotelAddress":"7 9 High Street Kensington Kensington and Chelsea London W8 5NP United Kingdom","Country":"United Kingdom","OriginalHotelName":"Seraphine Kensington Gardens Hotel","Latitude":"51.5021027","Longitude":"-0.187901","NearestAirportID":"EGLC"}
{"HotelID":1057,"HotelName":"Hotel Gallitzinberg","HotelAddress":"Johann Staud Stra e 32 16 Ottakring 1160 Vienna Austria","Country":"Austria","Phone":"01 4198770","OriginalHotelName":"Hotel Gallitzinberg","GoogleAddress":["Johann-Staud-Straße 32","1160 Wien","Austria"],"Latitude":"48.2145071","Longitude":"16.2845042","gPlusPlaceId":"101260863074982168689","NearestAirportID":"LOXT"}
{"HotelID":1159,"HotelName":"Austria Trend Hotel Europa Wien","HotelAddress":"K rntnerstra e 18 Eingang Neuer Markt 3 01 Innere Stadt 1010 Vienna Austria","Country":"Austria","Phone":"01 515940","OriginalHotelName":"Austria Trend Hotel Europa Wien","GoogleAddress":["Kärntner Straße 32","1010 Wien","Austria"],"Latitude":"48.2062103","Longitude":"16.3710387","gPlusPlaceId":"104126961733861614336","NearestAirportID":"LOWW"}
