{"HotelID":587,"HotelName":"NH Collection Barcelona Podium","HotelAddress":"Bail n 4 6 Eixample 08010 Barcelona Spain","Country":"Spain","OriginalHotelName":"NH Collection Barcelona Podium","Latitude":"41.3916","Longitude":"2.1779","NearestAirportID":"LEBL"}
{"HotelID":731,"HotelName":"The Whitechapel","HotelAddress":"49 53 New Road Tower Hamlets London E1 1HH United Kingdom","Country":"United Kingdom","OriginalHotelName":"The Whitechapel","Latitude":"51.5161286","Longitude":"-0.0624458","NearestAirportID":"EGLC"}
{"HotelID":988,"HotelName":"H tel Powers","HotelAddress":"52 rue Francois 1er 8th arr 75008 Paris France","Country":"France","OriginalHotelName":"H tel Powers","Latitude":"48.8691409","Longitude":"2.3031503","NearestAirportID":"LFPV"}
{"HotelID":1276,"HotelName":"Melia Paris Notre Dame","HotelAddress":"7 Rue De L h tel Colbert 5th arr 75005 Paris France","Country":"France","OriginalHotelName":"Melia Paris Notre Dame","Latitude":"48.8515198","Longitude":"2.3486511","NearestAirportID":"LFPV"}
{"HotelID":1307,"HotelName":"Prince de Galles, A Luxury Collection Hotel, Paris","HotelAddress":"33 avenue George V 8th arr 75008 Paris France","Country":"France","Phone":"01 53 23 77 77","OriginalHotelName":"Prince de Galles a Luxury Collection hotel Paris","GoogleAddress":["33 Avenue George V","75008 Paris","France"],"Latitude":"48.869143","Longitude":"2.3006526","gPlusPlaceId":"105686360952294226754","NearestAirportID":"LFPV"}
