{"HotelID":161,"HotelName":"Courtyard by Marriott Vienna Prater Messe","HotelAddress":"Trabrennstra e 4 02 Leopoldstadt 1020 Vienna Austria","Country":"Austria","OriginalHotelName":"Courtyard by Marriott Vienna Prater Messe","Latitude":"48.2130607","Longitude":"16.4133973","NearestAirportID":"LOWW"}
{"HotelID":555,"HotelName":"Best Western Madison Hotel","HotelAddress":"Via Privata Leopoldo Gasparotto 8 Central Station 20124 Milan Italy","Country":"Italy","OriginalHotelName":"Best Western Madison Hotel","Latitude":"45.4881471","Longitude":"9.2016609","NearestAirportID":"LIMB"}
{"HotelID":687,"HotelName":"DoubleTree By Hilton London Excel","HotelAddress":"Excel 2 Festoon Way Royal Victoria Dock Newham London E16 1RH United Kingdom","Country":"United Kingdom","OriginalHotelName":"DoubleTree By Hilton London Excel","Latitude":"51.507377","Longitude":"0.038657","NearestAirportID":"EGLC"}
{"HotelID":987,"HotelName":"Hotel Villa Lafayette Paris IX","HotelAddress":"46 Rue De Tr vise 9th arr 75009 Paris France","Country":"France","OriginalHotelName":"Hotel Villa Lafayette Paris IX","Latitude":"48.8760884","Longitude":"2.3456465","NearestAirportID":"LFPB"}
{"HotelID":1066,"HotelName":"Melia Barcelona Sarri ","HotelAddress":"Avenida Sarri 50 Les Corts 08029 Barcelona Spain","Country":"Spain","OriginalHotelName":"Melia Barcelona Sarri ","Latitude":"41.391058","Longitude":"2.141706","NearestAirportID":"LEBL"}
{"HotelID":1256,"HotelName":"Best Western Premier Op ra Li ge","HotelAddress":"9 Rue De Li ge 9th arr 75009 Paris France","Country":"France","OriginalHotelName":"Best Western Premier Op ra Li ge","Latitude":"48.8795947","Longitude":"2.3280695","NearestAirportID":"LFPB"}
{"HotelID":1279,"HotelName":"Mandarin Oriental Milan","HotelAddress":"Via Andegari 9 Milan City Center 20121 Milan Italy","Country":"Italy","OriginalHotelName":"Mandarin Oriental Milan","Latitude":"45.4694772","Longitude":"9.1909325","NearestAirportID":"LIML"}
{"HotelID":1385,"HotelName":"Hotel Plaza Elys es","HotelAddress":"177 Boulevard Haussmann 8th arr 75008 Paris France","Country":"France","OriginalHotelName":"Hotel Plaza Elys es","Latitude":"48.8746128","Longitude":"2.3056956","NearestAirportID":"LFPV"}
{"HotelID":1397,"HotelName":"H10 Metropolitan 4 Sup","HotelAddress":"Rambla Catalunya 7 9 Eixample 08007 Barcelona Spain","Country":"Spain","OriginalHotelName":"H10 Metropolitan 4 Sup","Latitude":"41.3875467","Longitude":"2.1673975","NearestAirportID":"LEBL"}
