{"HotelID":95,"HotelName":"Hotel Balmes","HotelAddress":"Mallorca 216 Eixample 08008 Barcelona Spain","Country":"Spain","OriginalHotelName":"Hotel Balmes","Latitude":"41.3910621","Longitude":"2.1593373","NearestAirportID":"LEBL"}
{"HotelID":411,"HotelName":"BoB Hotel by Elegancia","HotelAddress":"30 rue Pernety 14th arr 75014 Paris France","Country":"France","OriginalHotelName":"BoB Hotel by Elegancia","Latitude":"48.8335233","Longitude":"2.3191194","NearestAirportID":"LFPV"}
{"HotelID":477,"HotelName":"Danubius Hotel Regents Park","HotelAddress":"18 Lodge Road Near Baker Street And Marylebone Westminster Borough London NW8 7JT United Kingdom","Country":"United Kingdom","Phone":"020 7722 7722","OriginalHotelName":"Danubius Hotel Regents Park","GoogleAddress":["18 Lodge Rd","St John's Wood","London NW8 7JT, United Kingdom"],"Latitude":"51.529257","Longitude":"-0.168358","gPlusPlaceId":"113410700160363001177","NearestAirportID":"EGLC"}
{"HotelID":482,"HotelName":"NH Hesperia Barcelona Presidente","HotelAddress":"Avenida Diagonal 570 Sarri St Gervasi 08021 Barcelona Spain","Country":"Spain","OriginalHotelName":"NH Hesperia Barcelona Presidente","Latitude":"41.3941338","Longitude":"2.1489569","NearestAirportID":"LEBL"}
{"HotelID":740,"HotelName":"H tel F licien by Elegancia","HotelAddress":"21 rue F licien David 16th arr 75016 Paris France","Country":"France","OriginalHotelName":"H tel F licien by Elegancia","Latitude":"48.8493082","Longitude":"2.2743626","NearestAirportID":"LFPV"}
{"HotelID":968,"HotelName":"H tel de Jos phine BONAPARTE","HotelAddress":"10 rue d Ormesson 4th arr 75004 Paris France","Country":"France","OriginalHotelName":"H tel de Jos phine BONAPARTE","Latitude":"48.8555319","Longitude":"2.3621212","NearestAirportID":"LFPB"}
{"HotelID":1423,"HotelName":"Mercure Grand Hotel Biedermeier Wien","HotelAddress":"Landstra er Hauptstra e 28 03 Landstra e 1030 Vienna Austria","Country":"Austria","OriginalHotelName":"Mercure Grand Hotel Biedermeier Wien","Latitude":"48.2038688","Longitude":"16.3887039","NearestAirportID":"LOWW"}
