{"HotelID":56,"HotelName":"Urban Lodge Hotel","HotelAddress":"Arlandaweg 10 Westpoort 1043 EW Amsterdam Netherlands","Country":"Netherlands","OriginalHotelName":"Urban Lodge Hotel","Latitude":"52.3856494","Longitude":"4.834443","NearestAirportID":"EHAM"}
{"HotelID":109,"HotelName":"Hotel Raffaello","HotelAddress":"Viale Certosa 108 Certosa 20156 Milan Italy","Country":"Italy","Phone":"02 392431","OriginalHotelName":"Hotel Raffaello","GoogleAddress":["Viale Certosa, 108","20156 Milano","Italy"],"Latitude":"45.494861","Longitude":"9.141551","gPlusPlaceId":"104506588123361509177","NearestAirportID":"LIMB"}
{"HotelID":254,"HotelName":"Hotel Galileo","HotelAddress":"Corso Europa 9 Milan City Center 20122 Milan Italy","Country":"Italy","OriginalHotelName":"Hotel Galileo","Latitude":"45.4642651","Longitude":"9.1960569","NearestAirportID":"LIML"}
{"HotelID":378,"HotelName":"TWO Hotel Barcelona by Axel 4 Sup Adults Only","HotelAddress":"Calabria 90 92 Eixample 08015 Barcelona Spain","Country":"Spain","OriginalHotelName":"TWO Hotel Barcelona by Axel 4 Sup Adults Only","Latitude":"41.37913","Longitude":"2.1561186","NearestAirportID":"LEBL"}
{"HotelID":487,"HotelName":"Starhotels Ritz","HotelAddress":"Via Spallanzani 40 Central Station 20129 Milan Italy","Country":"Italy","Phone":"02 20551","OriginalHotelName":"Starhotels Ritz","GoogleAddress":["Via Lazzaro Spallanzani, 40","20129 Milano","Italy"],"Latitude":"45.4779041","Longitude":"9.2094965","gPlusPlaceId":"103138191667949432662","NearestAirportID":"LIML"}
{"HotelID":639,"HotelName":"Britannia International Hotel Canary Wharf","HotelAddress":"163 Marsh Wall Docklands Tower Hamlets London E14 9SJ United Kingdom","Country":"United Kingdom","OriginalHotelName":"Britannia International Hotel Canary Wharf","Latitude":"51.5019097","Longitude":"-0.0232208","NearestAirportID":"EGLC"}
{"HotelID":940,"HotelName":"Sofitel London St James","HotelAddress":"6 Waterloo Place Westminster Borough London SW1Y 4AN United Kingdom","Country":"United Kingdom","OriginalHotelName":"Sofitel London St James","Latitude":"51.5076044","Longitude":"-0.132266","NearestAirportID":"EGLC"}
{"HotelID":1040,"HotelName":"AC Hotel Victoria Suites a Marriott Lifestyle Hotel","HotelAddress":"Beltran i R zpide 7 9 Les Corts 08034 Barcelona Spain","Country":"Spain","OriginalHotelName":"AC Hotel Victoria Suites a Marriott Lifestyle Hotel","Latitude":"41.3893478","Longitude":"2.1209755","NearestAirportID":"LEBL"}
