{"HotelID":75,"HotelName":"Vincci Gala","HotelAddress":"Ronda Sant Pere 32 Eixample 08010 Barcelona Spain","Country":"Spain","OriginalHotelName":"Vincci Gala","Latitude":"41.3895263","Longitude":"2.1747136","NearestAirportID":"LEBL"}
{"HotelID":382,"HotelName":"Royal Ramblas","HotelAddress":"Las Ramblas 117 Ciutat Vella 08002 Barcelona Spain","Country":"Spain","OriginalHotelName":"Royal Ramblas","Latitude":"41.3842838","Longitude":"2.1707092","NearestAirportID":"LEBL"}
{"HotelID":469,"HotelName":"Select Hotel","HotelAddress":"1 Place De La Sorbonne 5th arr 75005 Paris France","Country":"France","OriginalHotelName":"Select Hotel","Latitude":"48.8483053","Longitude":"2.3425596","NearestAirportID":"LFPV"}
{"HotelID":621,"HotelName":"DoubleTree by Hilton Hotel London - Tower of London","HotelAddress":"7 Pepys Street City of London London EC3N 4AF United Kingdom","Country":"United Kingdom","Phone":"020 7709 1000","OriginalHotelName":"DoubleTree by Hilton Hotel London Tower of London","GoogleAddress":["7 Pepys St","London EC3N 4AF","United Kingdom"],"Latitude":"51.5108412","Longitude":"-0.0780581","gPlusPlaceId":"105997534142695059549","NearestAirportID":"EGLC"}
{"HotelID":630,"HotelName":"Best Western Plus Seraphine Hammersmith Hotel","HotelAddress":"84 King Street Hammersmith and Fulham London W6 0QW United Kingdom","Country":"United Kingdom","OriginalHotelName":"Best Western Plus Seraphine Hammersmith Hotel","Latitude":"51.4926269","Longitude":"-0.2288598","NearestAirportID":"EGWU"}
{"HotelID":786,"HotelName":"Le Mathurin Hotel Spa","HotelAddress":"43 Rue des Mathurins 8th arr 75008 Paris France","Country":"France","OriginalHotelName":"Le Mathurin Hotel Spa","Latitude":"48.8732068","Longitude":"2.3239015","NearestAirportID":"LFPB"}
{"HotelID":1027,"HotelName":"H tel California Champs Elys es","HotelAddress":"16 rue de Berri 8th arr 75008 Paris France","Country":"France","OriginalHotelName":"H tel California Champs Elys es","Latitude":"48.8726335","Longitude":"2.3048084","NearestAirportID":"LFPV"}
{"HotelID":1282,"HotelName":"H tel Etoile Saint Honor by Happyculture","HotelAddress":"214 rue du Faubourg Saint Honor 8th arr 75008 Paris France","Country":"France","OriginalHotelName":"H tel Etoile Saint Honor by Happyculture","Latitude":"48.8756508","Longitude":"2.3041568","NearestAirportID":"LFPV"}
