{"HotelID":1,"HotelName":"Hilton London Paddington","HotelAddress":"146 Praed Street Westminster Borough London W2 1EE United Kingdom","Country":"United Kingdom","OriginalHotelName":"Hilton London Paddington","Latitude":"51.515632","Longitude":"-0.175737","NearestAirportID":"EGLC"}
{"HotelID":206,"HotelName":"Hilton Garden Inn Vienna South","HotelAddress":"Hertha Firnberg Stra e 5 10 Favoriten 1100 Vienna Austria","Country":"Austria","OriginalHotelName":"Hilton Garden Inn Vienna South","Latitude":"48.1667886","Longitude":"16.344908","NearestAirportID":"LOWW"}
{"HotelID":896,"HotelName":"COMO Metropolitan London","HotelAddress":"Old Park Lane Westminster Borough London W1K 1LB United Kingdom","Country":"United Kingdom","OriginalHotelName":"COMO Metropolitan London","Latitude":"51.5050355","Longitude":"-0.1500864","NearestAirportID":"EGLC"}
{"HotelID":1008,"HotelName":"Blakemore Hyde Park","HotelAddress":"30 Leinster Gardens Bayswater Westminster Borough London W2 3AN United Kingdom","Country":"United Kingdom","OriginalHotelName":"Blakemore Hyde Park","Latitude":"51.5129736","Longitude":"-0.1837431","NearestAirportID":"EGLC"}
{"HotelID":1172,"HotelName":"Antica Locanda dei Mercanti","HotelAddress":"Via San Tomaso 6 Milan City Center 20121 Milan Italy","Country":"Italy","Phone":"02 805 4080","OriginalHotelName":"Antica Locanda Dei Mercanti","GoogleAddress":["Via San Tomaso, 6","20121 Milano","Italy"],"Latitude":"45.467298","Longitude":"9.1846982","gPlusPlaceId":"109348149038789285042","NearestAirportID":"LIML"}
{"HotelID":1391,"HotelName":"Ace Hotel London Shoreditch","HotelAddress":"100 Shoreditch High Street Hackney London E1 6JQ United Kingdom","Country":"United Kingdom","OriginalHotelName":"Ace Hotel London Shoreditch","Latitude":"51.5254162","Longitude":"-0.0772849","NearestAirportID":"EGLC"}
