{"HotelID":415,"HotelName":"Room Mate Anna","HotelAddress":"Carrer de Arag 271 Eixample 08007 Barcelona Spain","Country":"Spain","OriginalHotelName":"Room Mate Anna","Latitude":"41.3929366","Longitude":"2.1653954","NearestAirportID":"LEBL"}
{"HotelID":780,"HotelName":"Park Lane Mews Hotel","HotelAddress":"2 Stanhope Row Park Lane Westminster Borough London W1J 7BS United Kingdom","Country":"United Kingdom","Phone":"020 7493 7222","OriginalHotelName":"Park Lane Mews Hotel","GoogleAddress":["2 Stanhope Row","London W1J 7BS","United Kingdom"],"Latitude":"51.5059334","Longitude":"-0.1489418","gPlusPlaceId":"107335131271157050487","NearestAirportID":"EGLC"}
{"HotelID":1128,"HotelName":"The LaLit London","HotelAddress":"181 Tooley Street Southwark London SE1 2JR United Kingdom","Country":"United Kingdom","OriginalHotelName":"The LaLit London","Latitude":"51.5032524","Longitude":"-0.078179","NearestAirportID":"EGLC"}
{"HotelID":1227,"HotelName":"Staunton Hotel B B","HotelAddress":"13 15 Gower Street Camden London WC1E 6HE United Kingdom","Country":"United Kingdom","OriginalHotelName":"Staunton Hotel B B","Latitude":"51.520378","Longitude":"-0.1303414","NearestAirportID":"EGLC"}
{"HotelID":1475,"HotelName":"H tel Aiglon Esprit de France","HotelAddress":"232 Boulevard Raspail 14th arr 75014 Paris France","Country":"France","OriginalHotelName":"H tel Aiglon Esprit de France","Latitude":"48.8396623","Longitude":"2.3300582","NearestAirportID":"LFPV"}
{"HotelID":1486,"HotelName":"Villa Opera Drouot","HotelAddress":"2 rue Geoffroy Marie 9th arr 75009 Paris France","Country":"France","OriginalHotelName":"Villa Opera Drouot","Latitude":"48.8732231","Longitude":"2.3436097","NearestAirportID":"LFPB"}
