{"HotelID":4,"HotelName":"St George Hotel","HotelAddress":"49 Gloucester Place Marble Arch Westminster Borough London W1U 8JE United Kingdom","Country":"United Kingdom","Phone":"020 7486 8586","OriginalHotelName":"St George Hotel","GoogleAddress":["49 Gloucester Pl","London W1U 8JE","United Kingdom"],"Latitude":"51.5182768","Longitude":"-0.1583511","gPlusPlaceId":"105255034750157983625","NearestAirportID":"EGLC"}
{"HotelID":55,"HotelName":"Hotel Le Mareuil","HotelAddress":"51 Rue de Malte 11th arr 75011 Paris France","Country":"France","OriginalHotelName":"Hotel Le Mareuil","Latitude":"48.8659899","Longitude":"2.3674149","NearestAirportID":"LFPB"}
{"HotelID":59,"HotelName":"Draycott Hotel","HotelAddress":"26 Cadogan Gardens Kensington and Chelsea London SW3 2RP United Kingdom","Country":"United Kingdom","Phone":"020 7730 6466","OriginalHotelName":"Draycott Hotel","GoogleAddress":["22-26 Cadogan Gardens","London SW3 2RP","United Kingdom"],"Latitude":"51.4930097","Longitude":"-0.159715","gPlusPlaceId":"111449331082004512013","NearestAirportID":"EGLC"}
{"HotelID":445,"HotelName":"Hotel Carlton s Montmartre","HotelAddress":"55 Bld Rochechouart 9th arr 75009 Paris France","Country":"France","OriginalHotelName":"Hotel Carlton s Montmartre","Latitude":"48.8819068","Longitude":"2.3410005","NearestAirportID":"LFPB"}
{"HotelID":684,"HotelName":"Mercure Hotel Raphael Wien","HotelAddress":"Wallgasse 23 06 Mariahilf 1060 Vienna Austria","Country":"Austria","OriginalHotelName":"Mercure Hotel Raphael Wien","Latitude":"48.1919288","Longitude":"16.3391395","NearestAirportID":"LOWW"}
{"HotelID":1318,"HotelName":"Rydges Kensington Hotel","HotelAddress":"61 Gloucester Road Kensington and Chelsea London SW7 4PE United Kingdom","Country":"United Kingdom","OriginalHotelName":"Rydges Kensington Hotel","Latitude":"51.4956883","Longitude":"-0.1827878","NearestAirportID":"EGLC"}
{"HotelID":1340,"HotelName":"South Place Hotel","HotelAddress":"3 South Place City of London London EC2M 2AF United Kingdom","Country":"United Kingdom","Phone":"020 3503 0000","OriginalHotelName":"South Place Hotel","GoogleAddress":["3 South Place","London EC2M 2AF","United Kingdom"],"Latitude":"51.5189182","Longitude":"-0.0866009","gPlusPlaceId":"111540863266128321291","NearestAirportID":"EGLC"}
