{"HotelID":321,"HotelName":"Austria Trend Hotel Anatol Wien","HotelAddress":"Webgasse 26 06 Mariahilf 1060 Vienna Austria","Country":"Austria","OriginalHotelName":"Austria Trend Hotel Anatol Wien","Latitude":"48.1945774","Longitude":"16.346356","NearestAirportID":"LOWW"}
{"HotelID":362,"HotelName":"Arthotel ANA Boutique Six","HotelAddress":"Webgasse 23 06 Mariahilf 1060 Vienna Austria","Country":"Austria","OriginalHotelName":"Arthotel ANA Boutique Six","Latitude":"48.1941905","Longitude":"16.3462578","NearestAirportID":"LOWW"}
{"HotelID":613,"HotelName":"DoubleTree by Hilton London Docklands Riverside","HotelAddress":"265 Rotherhithe Street Southwark London SE16 5HW United Kingdom","Country":"United Kingdom","OriginalHotelName":"DoubleTree by Hilton London Docklands Riverside","Latitude":"51.5043483","Longitude":"-0.0334436","NearestAirportID":"EGLC"}
{"HotelID":633,"HotelName":"Aloft London Excel","HotelAddress":"One Eastern Gateway Royal Victoria Dock Newham London E16 1FR United Kingdom","Country":"United Kingdom","Phone":"020 3203 0700","OriginalHotelName":"Aloft London Excel","GoogleAddress":["One Eastern Gateway, Royal Victoria Dock","Royal Victoria Dock","London E16 1FR, United Kingdom"],"Latitude":"51.5083719","Longitude":"0.0355768","gPlusPlaceId":"100105369449307723930","NearestAirportID":"EGLC"}
{"HotelID":673,"HotelName":"AZIMUT Hotel Vienna","HotelAddress":"Sonnwendgasse 8 10 Favoriten 1100 Vienna Austria","Country":"Austria","OriginalHotelName":"AZIMUT Hotel Vienna","Latitude":"48.1834787","Longitude":"16.3762765","NearestAirportID":"LOWW"}
{"HotelID":857,"HotelName":"St Pancras Renaissance Hotel London","HotelAddress":"Euston Road Camden London NW1 2AR United Kingdom","Country":"United Kingdom","OriginalHotelName":"St Pancras Renaissance Hotel London","Latitude":"51.5267769","Longitude":"-0.1324905","NearestAirportID":"EGLC"}
{"HotelID":961,"HotelName":"Royal Hotel Champs Elys es","HotelAddress":"33 avenue de Friedland 8th arr 75008 Paris France","Country":"France","OriginalHotelName":"Royal Hotel Champs Elys es","Latitude":"48.8740463","Longitude":"2.300196","NearestAirportID":"LFPV"}
{"HotelID":974,"HotelName":"Hotel Le Saint Gregoire","HotelAddress":"43 Rue De l Abb Gr goire 6th arr 75006 Paris France","Country":"France","OriginalHotelName":"Hotel Le Saint Gregoire","Latitude":"48.8471891","Longitude":"2.3260138","NearestAirportID":"LFPV"}
{"HotelID":1160,"HotelName":"Grosvenor House A JW Marriott Hotel","HotelAddress":"Park Lane Westminster Borough London W1K 7TN United Kingdom","Country":"United Kingdom","OriginalHotelName":"Grosvenor House A JW Marriott Hotel","Latitude":"51.5082019","Longitude":"-0.1545589","NearestAirportID":"EGLC"}
