{"HotelID":670,"HotelName":"Holiday Inn Amsterdam Arena Towers","HotelAddress":"Hoogoorddreef 66 Zuidoost 1101 BE Amsterdam Netherlands","Country":"Netherlands","OriginalHotelName":"Holiday Inn Amsterdam Arena Towers","Latitude":"52.3096835","Longitude":"4.9422614","NearestAirportID":"NL-0050"}
{"HotelID":745,"HotelName":"ME London by Melia","HotelAddress":"336 337 Strand London Westminster Borough London WC2R 1HA United Kingdom","Country":"United Kingdom","OriginalHotelName":"ME London by Melia","Latitude":"51.511879","Longitude":"-0.118552","NearestAirportID":"EGLC"}
{"HotelID":927,"HotelName":"JUFA Hotel Wien","HotelAddress":"Mautner Markhof Gasse 50 11 Simmering 1110 Vienna Austria","Country":"Austria","OriginalHotelName":"JUFA Hotel Wien","Latitude":"48.1756283","Longitude":"16.4200957","NearestAirportID":"LOWW"}
{"HotelID":949,"HotelName":"Grosvenor House Suites by Jumeirah Living","HotelAddress":"86 Park Lane Westminster Borough London W1K 7TN United Kingdom","Country":"United Kingdom","OriginalHotelName":"Grosvenor House Suites by Jumeirah Living","Latitude":"51.509841","Longitude":"-0.1552193","NearestAirportID":"EGLC"}
{"HotelID":1174,"HotelName":"Royal Saint Michel","HotelAddress":"3 Boulevard Saint Michel 5th arr 75005 Paris France","Country":"France","OriginalHotelName":"Royal Saint Michel","Latitude":"48.8528364","Longitude":"2.3440803","NearestAirportID":"LFPV"}
