{"HotelID":365,"HotelName":"Ch teau Monfort Relais Ch teaux","HotelAddress":"Corso Concordia 1 Milan City Center 20129 Milan Italy","Country":"Italy","OriginalHotelName":"Ch teau Monfort Relais Ch teaux","Latitude":"45.4682358","Longitude":"9.2073799","NearestAirportID":"LIML"}
{"HotelID":773,"HotelName":"Mercure London Paddington Hotel","HotelAddress":"144 Praed St Paddington Westminster Borough London W2 1HU United Kingdom","Country":"United Kingdom","Phone":"020 7706 8888","OriginalHotelName":"Mercure London Paddington Hotel","GoogleAddress":["144 Praed St","Paddington, London W2 1HU","United Kingdom"],"Latitude":"51.5161139","Longitude":"-0.1749521","gPlusPlaceId":"108095886804669386669","NearestAirportID":"EGLC"}
{"HotelID":820,"HotelName":"Hilton London Olympia","HotelAddress":"380 Kensington High Street Kensington and Chelsea London W14 8NL United Kingdom","Country":"United Kingdom","OriginalHotelName":"Hilton London Olympia","Latitude":"51.4967399","Longitude":"-0.2064723","NearestAirportID":"EGWU"}
{"HotelID":999,"HotelName":"BEST WESTERN PLUS Amedia Wien","HotelAddress":"Landstra er Hauptstra e 155 03 Landstra e 1030 Vienna Austria","Country":"Austria","OriginalHotelName":"BEST WESTERN PLUS Amedia Wien","Latitude":"48.1923791","Longitude":"16.3994512","NearestAirportID":"LOWW"}
{"HotelID":1092,"HotelName":"The Chesterfield Mayfair","HotelAddress":"35 Charles Street Mayfair Westminster Borough London W1J 5EB United Kingdom","Country":"United Kingdom","Phone":"020 7491 2622","OriginalHotelName":"The Chesterfield Mayfair","GoogleAddress":["35 Charles St","London W1J 5EB","United Kingdom"],"Latitude":"51.5076899","Longitude":"-0.1471358","gPlusPlaceId":"117667217300895102621","NearestAirportID":"EGLC"}
{"HotelID":1316,"HotelName":"Mercure Paris Gare Montparnasse","HotelAddress":"20 Rue De La Ga t 14th arr 75014 Paris France","Country":"France","OriginalHotelName":"Mercure Paris Gare Montparnasse","Latitude":"48.84","Longitude":"2.3236","NearestAirportID":"LFPV"}
