{"HotelID":300,"HotelName":"Hotel Oscar","HotelAddress":"33 rue Marbeuf 8th arr 75008 Paris France","Country":"France","OriginalHotelName":"Hotel Oscar","Latitude":"48.8694755","Longitude":"2.3046954","NearestAirportID":"LFPV"}
{"HotelID":406,"HotelName":"45 Park Lane Dorchester Collection","HotelAddress":"45 Park Lane Westminster Borough London W1K 1PN United Kingdom","Country":"United Kingdom","OriginalHotelName":"45 Park Lane Dorchester Collection","Latitude":"51.5063709","Longitude":"-0.1515359","NearestAirportID":"EGLC"}
{"HotelID":412,"HotelName":"Castille Paris Starhotels Collezione","HotelAddress":"33 Rue Cambon 1st arr 75001 Paris France","Country":"France","OriginalHotelName":"Castille Paris Starhotels Collezione","Latitude":"48.8682978","Longitude":"2.3268027","NearestAirportID":"LFPB"}
{"HotelID":784,"HotelName":"Grange Fitzrovia Hotel","HotelAddress":"20 28 Bolsover Street Westminster Borough London W1W 5NB United Kingdom","Country":"United Kingdom","OriginalHotelName":"Grange Fitzrovia Hotel","Latitude":"51.521759","Longitude":"-0.1425381","NearestAirportID":"EGLC"}
{"HotelID":787,"HotelName":"H tel Th r se","HotelAddress":"5 7 Rue Th r se 1st arr 75001 Paris France","Country":"France","OriginalHotelName":"H tel Th r se","Latitude":"48.8816306","Longitude":"2.2992146","NearestAirportID":"LFPB"}
{"HotelID":842,"HotelName":"Camperio House Suites Apartments","HotelAddress":"Via Camperio 9 Milan City Center 20123 Milan Italy","Country":"Italy","OriginalHotelName":"Camperio House Suites Apartments","Latitude":"45.466598","Longitude":"9.183064","NearestAirportID":"LIML"}
{"HotelID":1030,"HotelName":"WestCord Fashion Hotel Amsterdam","HotelAddress":"Hendrikje Stoffelstraat 1 Slotervaart 1058 GC Amsterdam Netherlands","Country":"Netherlands","Phone":"020 810 0800","OriginalHotelName":"WestCord Fashion Hotel Amsterdam","GoogleAddress":["Hendrikje Stoffelsstraat 1","1058 GC Amsterdam","Netherlands"],"Latitude":"52.357655","Longitude":"4.844576","gPlusPlaceId":"117572202857335470238","NearestAirportID":"EHAM"}
{"HotelID":1034,"HotelName":"Milan Marriott Hotel","HotelAddress":"Via Washington 66 Fiera Milano City 20146 Milan Italy","Country":"Italy","Phone":"02 48521","OriginalHotelName":"Milan Marriott Hotel","GoogleAddress":["Via Washington, 66","20146 Milano","Italy"],"Latitude":"45.4611287","Longitude":"9.1542675","gPlusPlaceId":"103355640053285698391","NearestAirportID":"LIML"}
{"HotelID":1064,"HotelName":"Hotel Dupond Smith","HotelAddress":"2 rue des Guillemites 4th arr 75004 Paris France","Country":"France","OriginalHotelName":"Hotel Dupond Smith","Latitude":"48.857898","Longitude":"2.3571978","NearestAirportID":"LFPB"}
{"HotelID":1156,"HotelName":"Grange Strathmore Hotel","HotelAddress":"41 Queens Gate Gardens Kensington and Chelsea London SW7 5NB United Kingdom","Country":"United Kingdom","Phone":"020 7584 0512","OriginalHotelName":"Grange Strathmore Hotel","GoogleAddress":["41 Queen's Gate Gardens","London SW7 5NB","United Kingdom"],"Latitude":"51.4958184","Longitude":"-0.1813958","gPlusPlaceId":"109049823385283611837","NearestAirportID":"EGLC"}
{"HotelID":1163,"HotelName":"The Park City Grand Plaza Kensington Hotel","HotelAddress":"18 30 Lexham Gardens Kensington and Chelsea London W8 5JE United Kingdom","Country":"United Kingdom","OriginalHotelName":"The Park City Grand Plaza Kensington Hotel","Latitude":"51.4954976","Longitude":"-0.1893691","NearestAirportID":"EGLC"}
{"HotelID":1489,"HotelName":"Monsieur Cadet Hotel Spa Ex Meyerhold Spa ","HotelAddress":"4 rue Cadet 9th arr 75009 Paris France","Country":"France","OriginalHotelName":"Monsieur Cadet Hotel Spa Ex Meyerhold Spa ","Latitude":"48.8742767","Longitude":"2.3426276","NearestAirportID":"LFPB"}
