{"HotelID":308,"HotelName":"Hotel JL No76","HotelAddress":"Jan Luijkenstraat 76 Oud Zuid 1071 CT Amsterdam Netherlands","Country":"Netherlands","Phone":"020 348 5555","OriginalHotelName":"Hotel JL No76","GoogleAddress":["Jan Luijkenstraat 76","1071 CT Amsterdam","Netherlands"],"Latitude":"52.3595919","Longitude":"4.8801587","gPlusPlaceId":"105302813092922092842","NearestAirportID":"EHAM"}
{"HotelID":328,"HotelName":"Park Hyatt Vienna","HotelAddress":"Am Hof 2 01 Innere Stadt 1010 Vienna Austria","Country":"Austria","OriginalHotelName":"Park Hyatt Vienna","Latitude":"48.2105243","Longitude":"16.3683592","NearestAirportID":"LOWW"}
{"HotelID":867,"HotelName":"H tel Crayon Rouge by Elegancia","HotelAddress":"42 rue Croix des Petits Champs 1st arr 75001 Paris France","Country":"France","OriginalHotelName":"H tel Crayon Rouge by Elegancia","Latitude":"48.8644967","Longitude":"2.3405415","NearestAirportID":"LFPB"}
{"HotelID":1130,"HotelName":"Am Spiegeln","HotelAddress":"Johann H rbiger Gasse 30 23 Liesing 1230 Vienna Austria","Country":"Austria","OriginalHotelName":"Am Spiegeln","Latitude":"48.1537005","Longitude":"16.2825822","NearestAirportID":"LOAV"}
{"HotelID":1410,"HotelName":"Petit Palais Hotel De Charme","HotelAddress":"Via Molino Delle Armi 1 Angolo Corso Italia Milan City Center 20123 Milan Italy","Country":"Italy","OriginalHotelName":"Petit Palais Hotel De Charme","Latitude":"45.4559784","Longitude":"9.1871812","NearestAirportID":"LIML"}
