{"HotelID":78,"HotelName":"Amarante Champs Elys es","HotelAddress":"19 Rue Vernet 8th arr 75008 Paris France","Country":"France","OriginalHotelName":"Amarante Champs Elys es","Latitude":"48.8717649","Longitude":"2.2983855","NearestAirportID":"LFPV"}
{"HotelID":322,"HotelName":"Batty Langley s","HotelAddress":"12 Folgate Street City of London London E1 6BX United Kingdom","Country":"United Kingdom","OriginalHotelName":"Batty Langley s","Latitude":"51.5208575","Longitude":"-0.0779503","NearestAirportID":"EGLC"}
{"HotelID":513,"HotelName":"Hotel Des Champs Elysees","HotelAddress":"2 Rue d Artois 8th arr 75008 Paris France","Country":"France","Phone":"01 43 59 11 42","OriginalHotelName":"H tel des Champs Elys es","GoogleAddress":["2 Rue d'Artois","75008 Paris","France"],"Latitude":"48.8722884","Longitude":"2.3090359","gPlusPlaceId":"111452122283601597603","NearestAirportID":"LFPV"}
{"HotelID":918,"HotelName":"Apollofirst Boutique Hotel","HotelAddress":"Apollolaan 123 125 Oud Zuid 1077 AP Amsterdam Netherlands","Country":"Netherlands","OriginalHotelName":"Apollofirst Boutique Hotel","Latitude":"52.350396","Longitude":"4.8756404","NearestAirportID":"EHAM"}
{"HotelID":1005,"HotelName":"NH Carlton Amsterdam","HotelAddress":"Vijzelstraat 4 Amsterdam City Center 1017 HK Amsterdam Netherlands","Country":"Netherlands","Phone":"020 622 2266","OriginalHotelName":"NH Carlton Amsterdam","GoogleAddress":["Vijzelstraat 4","1017 HK Amsterdam","Netherlands"],"Latitude":"52.3663727","Longitude":"4.8930505","gPlusPlaceId":"115445721912297534396","NearestAirportID":"EHAM"}
{"HotelID":1016,"HotelName":"Mercure Paris Bercy Biblioth que","HotelAddress":"6 Boulevard Vincent Auriol 13th arr 75013 Paris France","Country":"France","OriginalHotelName":"Mercure Paris Bercy Biblioth que","Latitude":"48.8370334","Longitude":"2.372322","NearestAirportID":"LFPO"}
{"HotelID":1133,"HotelName":"Hôtel de Vendôme","HotelAddress":"1 Place Vend me 1st arr 75001 Paris France","Country":"France","Phone":"01 55 04 55 00","OriginalHotelName":"H tel De Vend me","GoogleAddress":["1 Place Vendôme","75001","France"],"Latitude":"48.8668564","Longitude":"2.3286339","gPlusPlaceId":"112671004391622875527","NearestAirportID":"LFPB"}
