{"HotelID":167,"HotelName":"Andaz London Liverpool Street","HotelAddress":"40 Liverpool Street City of London London EC2M 7QN United Kingdom","Country":"United Kingdom","OriginalHotelName":"Andaz London Liverpool Street","Latitude":"51.5172825","Longitude":"-0.0812451","NearestAirportID":"EGLC"}
{"HotelID":288,"HotelName":"Little Palace Hotel","HotelAddress":"4 rue Salomon de Caus 3rd arr 75003 Paris France","Country":"France","OriginalHotelName":"Little Palace Hotel","Latitude":"48.8675674","Longitude":"2.3539896","NearestAirportID":"LFPB"}
{"HotelID":394,"HotelName":"Aparthotel Adagio Vienna City","HotelAddress":"Uraniastra e 2 01 Innere Stadt 1010 Vienna Austria","Country":"Austria","OriginalHotelName":"Aparthotel Adagio Vienna City","Latitude":"48.2110845","Longitude":"16.3838405","NearestAirportID":"LOWW"}
{"HotelID":576,"HotelName":"Oceania Paris Porte De Versailles","HotelAddress":"52 Rue Oradour sur Glane 15th arr 75015 Paris France","Country":"France","OriginalHotelName":"Oceania Paris Porte De Versailles","Latitude":"48.8303023","Longitude":"2.2842872","NearestAirportID":"LFPV"}
{"HotelID":703,"HotelName":"Le Cinq Codet","HotelAddress":"5 rue Louis Codet 7th arr 75007 Paris France","Country":"France","OriginalHotelName":"Le Cinq Codet","Latitude":"48.8547869","Longitude":"2.3084819","NearestAirportID":"LFPV"}
{"HotelID":945,"HotelName":"De Vere Devonport House","HotelAddress":"King William Walk Greenwich London SE10 9JW United Kingdom","Country":"United Kingdom","Phone":"0844 980 2304","OriginalHotelName":"De Vere Devonport House","GoogleAddress":["King William Walk","London SE10 9JW","United Kingdom"],"Latitude":"51.480672","Longitude":"-0.0071375","gPlusPlaceId":"106519366682242686010","NearestAirportID":"EGLC"}
{"HotelID":1049,"HotelName":"NH Wien City","HotelAddress":"Mariahilfer Stra e 32 34 07 Neubau 1070 Vienna Austria","Country":"Austria","OriginalHotelName":"NH Wien City","Latitude":"48.2002872","Longitude":"16.3547746","NearestAirportID":"LOWW"}
