{"HotelID":88,"HotelName":"London Marriott Hotel Marble Arch","HotelAddress":"134 George Street Westminster Borough London W1H 5DN United Kingdom","Country":"United Kingdom","Phone":"020 7723 1277","OriginalHotelName":"London Marriott Hotel Marble Arch","GoogleAddress":["134 George St","London W1H 5DN","United Kingdom"],"Latitude":"51.5163841","Longitude":"-0.1635764","gPlusPlaceId":"107232991634078124743","NearestAirportID":"EGLC"}
{"HotelID":197,"HotelName":"R Kipling by Happyculture","HotelAddress":"65 rue Blanche 9th arr 75009 Paris France","Country":"France","OriginalHotelName":"R Kipling by Happyculture","Latitude":"48.8820838","Longitude":"2.3315849","NearestAirportID":"LFPB"}
{"HotelID":486,"HotelName":"Four Points Sheraton Milan Center","HotelAddress":"Via Gerolamo Cardano 1 Central Station 20124 Milan Italy","Country":"Italy","OriginalHotelName":"Four Points Sheraton Milan Center","Latitude":"45.4851889","Longitude":"9.198015","NearestAirportID":"LIMB"}
{"HotelID":531,"HotelName":"Arthotel ANA Prime","HotelAddress":"Sch nbrunner Stra e 41 05 Margareten 1050 Vienna Austria","Country":"Austria","OriginalHotelName":"Arthotel ANA Prime","Latitude":"48.1925582","Longitude":"16.3576071","NearestAirportID":"LOWW"}
{"HotelID":903,"HotelName":"Le Lavoisier","HotelAddress":"21 rue Lavoisier 8th arr 75008 Paris France","Country":"France","OriginalHotelName":"Le Lavoisier","Latitude":"48.8737702","Longitude":"2.3201063","NearestAirportID":"LFPB"}
{"HotelID":979,"HotelName":"Hotel Lumen Paris Louvre","HotelAddress":"15 Rue Des Pyramides 1st arr 75001 Paris France","Country":"France","Phone":"01 44 50 77 00","OriginalHotelName":"Hotel Lumen Paris Louvre","GoogleAddress":["15 Rue des Pyramides","75001 Paris","France"],"Latitude":"48.8652582","Longitude":"2.3329632","gPlusPlaceId":"100917611828423145413","NearestAirportID":"LFPB"}
{"HotelID":993,"HotelName":"Acevi Villarroel","HotelAddress":"Villarroel 106 Eixample 08011 Barcelona Spain","Country":"Spain","Phone":"934 52 00 00","OriginalHotelName":"Acevi Villarroel","GoogleAddress":["Carrer de Villarroel, 106","08011 Barcelona","Spain"],"Latitude":"41.3853781","Longitude":"2.1567228","gPlusPlaceId":"116928107368344610909","NearestAirportID":"LEBL"}
{"HotelID":1487,"HotelName":"The Trafalgar Hilton","HotelAddress":"2 Spring Gardens Trafalgar Square Westminster Borough London SW1A 2TS United Kingdom","Country":"United Kingdom","OriginalHotelName":"The Trafalgar Hilton","Latitude":"51.507374","Longitude":"-0.129135","NearestAirportID":"EGLC"}
