{"HotelID":52,"HotelName":"Amsterdam Marriott Hotel","HotelAddress":"Stadhouderskade 12 Oud West 1054 ES Amsterdam Netherlands","Country":"Netherlands","Phone":"020 607 5555","OriginalHotelName":"Amsterdam Marriott Hotel","GoogleAddress":["Stadhouderskade 12","1054 ES Amsterdam","Netherlands"],"Latitude":"52.362514","Longitude":"4.8800077","gPlusPlaceId":"112723510139473439414","NearestAirportID":"EHAM"}
{"HotelID":297,"HotelName":"NH Danube City","HotelAddress":"Wagramer Stra e 21 22 Donaustadt 1220 Vienna Austria","Country":"Austria","Phone":"01 260200","OriginalHotelName":"NH Danube City","GoogleAddress":["Wagramer Straße 21","1220 Wien","Austria"],"Latitude":"48.2353789","Longitude":"16.4219737","gPlusPlaceId":"108653475916079509207","NearestAirportID":"LOWW"}
{"HotelID":363,"HotelName":"Holiday Inn Paris Gare de Lyon Bastille","HotelAddress":"11 15 Rue De Lyon 12th arr 75012 Paris France","Country":"France","OriginalHotelName":"Holiday Inn Paris Gare de Lyon Bastille","Latitude":"48.8468064","Longitude":"2.3714789","NearestAirportID":"LFPO"}
{"HotelID":768,"HotelName":"Hotel Amsterdam De Roode Leeuw","HotelAddress":"Damrak 93 94 Amsterdam City Center 1012 LP Amsterdam Netherlands","Country":"Netherlands","OriginalHotelName":"Hotel Amsterdam De Roode Leeuw","Latitude":"52.373704","Longitude":"4.893591","NearestAirportID":"EHAM"}
{"HotelID":770,"HotelName":"Golden Tulip Amsterdam Riverside","HotelAddress":"Provincialeweg 38 Zuidoost 1108 AB Amsterdam Netherlands","Country":"Netherlands","OriginalHotelName":"Golden Tulip Amsterdam Riverside","Latitude":"52.3154533","Longitude":"4.9962997","NearestAirportID":"NL-0050"}
{"HotelID":777,"HotelName":"The Guesthouse Vienna","HotelAddress":"F hrichgasse 10 01 Innere Stadt 1010 Vienna Austria","Country":"Austria","Phone":"01 5121320","OriginalHotelName":"The Guesthouse Vienna","GoogleAddress":["Führichgasse 10","1010 Wien","Austria"],"Latitude":"48.2051299","Longitude":"16.369036","gPlusPlaceId":"105605243369299472993","NearestAirportID":"LOWW"}
{"HotelID":1302,"HotelName":"The Exhibitionist Hotel","HotelAddress":"8 10 Queensberry Place Kensington and Chelsea London SW7 2EA United Kingdom","Country":"United Kingdom","OriginalHotelName":"The Exhibitionist Hotel","Latitude":"51.4947754","Longitude":"-0.177789","NearestAirportID":"EGLC"}
{"HotelID":1485,"HotelName":"Idol Hotel","HotelAddress":"16 rue d Edimbourg 8th arr 75008 Paris France","Country":"France","OriginalHotelName":"Idol Hotel","Latitude":"48.8795369","Longitude":"2.3202966","NearestAirportID":"LFPB"}
