{"HotelID":395,"HotelName":"Hotel Carrobbio","HotelAddress":"Via Medici 3 Milan City Center 20123 Milan Italy","Country":"Italy","Phone":"02 8901 0740","OriginalHotelName":"Hotel Carrobbio","GoogleAddress":["Via Medici, 3","20123 Milano","Italy"],"Latitude":"45.4606597","Longitude":"9.1810947","gPlusPlaceId":"103318661222276155099","NearestAirportID":"LIML"}
{"HotelID":403,"HotelName":"Carlyle Brera Hotel","HotelAddress":"Corso Garibaldi 84 Milan City Center 20121 Milan Italy","Country":"Italy","OriginalHotelName":"Carlyle Brera Hotel","Latitude":"45.4769923","Longitude":"9.1844899","NearestAirportID":"LIMB"}
{"HotelID":779,"HotelName":"Ramada Apollo Amsterdam Centre","HotelAddress":"Staalmeesterslaan 410 Slotervaart 1057 PH Amsterdam Netherlands","Country":"Netherlands","Phone":"020 207 0000","OriginalHotelName":"Ramada Apollo Amsterdam Centre","GoogleAddress":["Staalmeesterslaan 410","1057 PH Amsterdam","Netherlands"],"Latitude":"52.3681299","Longitude":"4.8440847","gPlusPlaceId":"100342206177691799874","NearestAirportID":"EHAM"}
{"HotelID":982,"HotelName":"Hotel Les Bains Paris","HotelAddress":"7 Rue Du Bourg L abb 3rd arr 75003 Paris France","Country":"France","OriginalHotelName":"Hotel Les Bains Paris","Latitude":"48.863828","Longitude":"2.3519345","NearestAirportID":"LFPB"}
{"HotelID":1104,"HotelName":"Catalonia Eixample 1864","HotelAddress":"Roger de Ll ria 60 Eixample 08009 Barcelona Spain","Country":"Spain","OriginalHotelName":"Catalonia Eixample 1864","Latitude":"41.393599","Longitude":"2.1684151","NearestAirportID":"LEBL"}
