{"HotelID":391,"HotelName":"Hotel Le Walt","HotelAddress":"37 Avenue De La Motte Picquet 7th arr 75007 Paris France","Country":"France","Phone":"01 45 51 55 83","OriginalHotelName":"H tel Le Walt","GoogleAddress":["37 Avenue de la Motte-Picquet","75007 Paris","France"],"Latitude":"48.8547161","Longitude":"2.306642","gPlusPlaceId":"114680439149221871285","NearestAirportID":"LFPV"}
{"HotelID":438,"HotelName":"St George s Hotel Wembley","HotelAddress":"43 51 Wembley Hill Road Brent London HA9 8AU United Kingdom","Country":"United Kingdom","OriginalHotelName":"St George s Hotel Wembley","Latitude":"51.5553678","Longitude":"-0.2864945","NearestAirportID":"EGWU"}
{"HotelID":532,"HotelName":"Una Hotel Century","HotelAddress":"Via Fabio Filzi 25 B Central Station 20124 Milan Italy","Country":"Italy","Phone":"02 675041","OriginalHotelName":"UNA Hotel Century","GoogleAddress":["Via Fabio Filzi, 25","20124 Milano","Italy"],"Latitude":"45.4841371","Longitude":"9.2001623","gPlusPlaceId":"105703191710490936652","NearestAirportID":"LIMB"}
{"HotelID":706,"HotelName":"Austria Trend Hotel Rathauspark Wien","HotelAddress":"Rathausstra e 17 01 Innere Stadt 1010 Vienna Austria","Country":"Austria","OriginalHotelName":"Austria Trend Hotel Rathauspark Wien","Latitude":"48.2133054","Longitude":"16.3567884","NearestAirportID":"LOWW"}
{"HotelID":821,"HotelName":"Snob Hotel by Elegancia","HotelAddress":"86 Rue Saint Denis 1st arr 75001 Paris France","Country":"France","OriginalHotelName":"Snob Hotel by Elegancia","Latitude":"48.8622723","Longitude":"2.3495707","NearestAirportID":"LFPB"}
{"HotelID":1297,"HotelName":"Hotel Sanpi Milano","HotelAddress":"Via Lazzaro Palazzi 18 Central Station 20124 Milan Italy","Country":"Italy","OriginalHotelName":"Hotel Sanpi Milano","Latitude":"45.4777623","Longitude":"9.203169","NearestAirportID":"LIML"}
{"HotelID":1313,"HotelName":"Nolinski Paris","HotelAddress":"16 Avenue de l Opera 1st arr 75001 Paris France","Country":"France","OriginalHotelName":"Nolinski Paris","Latitude":"48.8654874","Longitude":"2.3348924","NearestAirportID":"LFPB"}
{"HotelID":1388,"HotelName":"Fairmont Rey Juan Carlos I","HotelAddress":"Avenida Diagonal 661 671 Les Corts 08028 Barcelona Spain","Country":"Spain","OriginalHotelName":"Fairmont Rey Juan Carlos I","Latitude":"41.3835246","Longitude":"2.1096141","NearestAirportID":"LEBL"}
