{"HotelID":809,"HotelName":"COQ Hotel Paris","HotelAddress":"15 rue Edouard Manet 13th arr 75013 Paris France","Country":"France","OriginalHotelName":"COQ Hotel Paris","Latitude":"48.8328764","Longitude":"2.3572531","NearestAirportID":"LFPO"}
{"HotelID":863,"HotelName":"Mercure Paris Montparnasse Raspail","HotelAddress":"207 Boulevard Raspail 14th arr 75014 Paris France","Country":"France","OriginalHotelName":"Mercure Paris Montparnasse Raspail","Latitude":"48.8412131","Longitude":"2.3302954","NearestAirportID":"LFPV"}
{"HotelID":990,"HotelName":"IH Hotels Milano Puccini","HotelAddress":"Corso Buenos Aires 33 Central Station 20124 Milan Italy","Country":"Italy","OriginalHotelName":"IH Hotels Milano Puccini","Latitude":"45.4794406","Longitude":"9.2096756","NearestAirportID":"LIML"}
{"HotelID":1053,"HotelName":"Pershing Hall","HotelAddress":"49 rue Pierre Charron 8th arr 75008 Paris France","Country":"France","Phone":"01 58 36 58 00","OriginalHotelName":"Pershing Hall","GoogleAddress":["49 Rue Pierre Charron","75008 Paris","France"],"Latitude":"48.8691325","Longitude":"2.3021659","gPlusPlaceId":"116410159375448020405","NearestAirportID":"LFPV"}
{"HotelID":1150,"HotelName":"Palais Coburg Residenz","HotelAddress":"Coburgbastei 4 01 Innere Stadt 1010 Vienna Austria","Country":"Austria","OriginalHotelName":"Palais Coburg Residenz","Latitude":"48.2058584","Longitude":"16.3766545","NearestAirportID":"LOWW"}
{"HotelID":1203,"HotelName":"Hotel Le Sainte Beuve","HotelAddress":"9 Rue Sainte Beuve 6th arr 75006 Paris France","Country":"France","OriginalHotelName":"Hotel Le Sainte Beuve","Latitude":"48.8438998","Longitude":"2.3294858","NearestAirportID":"LFPV"}
{"HotelID":1284,"HotelName":"Eiffel Trocad ro","HotelAddress":"35 Rue Benjamin Franklin 16th arr 75016 Paris France","Country":"France","OriginalHotelName":"Eiffel Trocad ro","Latitude":"48.8613055","Longitude":"2.2862823","NearestAirportID":"LFPV"}
{"HotelID":1319,"HotelName":"Olivia Balmes Hotel","HotelAddress":"Balmes 117 Eixample 08008 Barcelona Spain","Country":"Spain","Phone":"932 14 41 63","OriginalHotelName":"Olivia Balmes Hotel","GoogleAddress":["Carrer de Balmes, 117","08008 Barcelona","Spain"],"Latitude":"41.392095","Longitude":"2.158493","gPlusPlaceId":"117853848595619229689","NearestAirportID":"LEBL"}
