{"HotelID":28,"HotelName":"Franklin Roosevelt","HotelAddress":"18 rue Clement Marrot 8th arr 75008 Paris France","Country":"France","OriginalHotelName":"Franklin Roosevelt","Latitude":"48.8678432","Longitude":"2.3033075","NearestAirportID":"LFPV"}
{"HotelID":183,"HotelName":"Hotel Topazz","HotelAddress":"Lichtensteg 3 01 Innere Stadt 1010 Vienna Austria","Country":"Austria","OriginalHotelName":"Hotel Topazz","Latitude":"48.210285","Longitude":"16.373579","NearestAirportID":"LOWW"}
{"HotelID":210,"HotelName":"Grange Blooms Hotel","HotelAddress":"7 Montague Street Bloomsbury Camden London WC1B 5BP United Kingdom","Country":"United Kingdom","OriginalHotelName":"Grange Blooms Hotel","Latitude":"51.5196913","Longitude":"-0.1254243","NearestAirportID":"EGLC"}
{"HotelID":436,"HotelName":"H tel La Parizienne by Elegancia","HotelAddress":"33 Boulevard du Montparnasse 6th arr 75006 Paris France","Country":"France","OriginalHotelName":"H tel La Parizienne by Elegancia","Latitude":"48.8450894","Longitude":"2.3209503","NearestAirportID":"LFPV"}
{"HotelID":1031,"HotelName":"HCC Regente","HotelAddress":"Rambla de Catalunya 76 Eixample 08008 Barcelona Spain","Country":"Spain","Phone":"934 87 59 89","OriginalHotelName":"HCC Regente","GoogleAddress":["Rambla de Catalunya, 76","08008 Barcelona","Spain"],"Latitude":"41.3922919","Longitude":"2.1622256","gPlusPlaceId":"100518816338202264688","NearestAirportID":"LEBL"}
{"HotelID":1175,"HotelName":"Club Quarters Hotel Lincoln s Inn Fields","HotelAddress":"61 Lincoln s Inn Fields Camden London WC2A 3JW United Kingdom","Country":"United Kingdom","OriginalHotelName":"Club Quarters Hotel Lincoln s Inn Fields","Latitude":"51.5160988","Longitude":"-0.1181749","NearestAirportID":"EGLC"}
{"HotelID":1201,"HotelName":"H tel des Academies et des Arts","HotelAddress":"15 Rue De La Grande Chaumi re 6th arr 75006 Paris France","Country":"France","OriginalHotelName":"H tel des Academies et des Arts","Latitude":"48.8420669","Longitude":"2.3304091","NearestAirportID":"LFPV"}
{"HotelID":1426,"HotelName":"Radisson Blu Portman Hotel London","HotelAddress":"22 Portman Square Westminster Borough London W1H 7BG United Kingdom","Country":"United Kingdom","Phone":"020 7208 6000","OriginalHotelName":"Radisson Blu Portman Hotel London","GoogleAddress":["22 Portman Square","London, Inglaterra - Grande Londres W1H 7BG","United Kingdom"],"Latitude":"51.5161911","Longitude":"-0.1579487","gPlusPlaceId":"113726561649431905128","NearestAirportID":"EGLC"}
{"HotelID":1441,"HotelName":"Novotel Suites Paris Montreuil Vincennes","HotelAddress":"22 Avenue du professeur lemierre 20th arr 75020 Paris France","Country":"France","OriginalHotelName":"Novotel Suites Paris Montreuil Vincennes","Latitude":"48.8554268","Longitude":"2.4152555","NearestAirportID":"LFPB"}
